[
  {
    "name": "경기대학교 수원캠퍼스 제1강의동(진리관)",
    "description": "진리관, 제1강의동, 1강의동",
    "latitude": 37.30152,
    "longitude": 127.03678
  },
  {
    "name": "경기대학교 수원캠퍼스 제2강의동(성신관)",
    "description": "성신관, 제2강의동, 2강의동",
    "latitude": 37.30138,
    "longitude": 127.03692
  },
  {
    "name": "경기대학교 수원캠퍼스 제3강의동(애경관)",
    "description": "애경관, 제3강의동, 3강의동",
    "latitude": 37.30124,
    "longitude": 127.03706
  },
  {
    "name": "경기대학교 수원캠퍼스 제4강의동(예지관)",
    "description": "예지관, 제4강의동, 4강의동",
    "latitude": 37.30110,
    "longitude": 127.03720
  },
  {
    "name": "경기대학교 수원캠퍼스 제5강의동(덕문관)",
    "description": "덕문관, 제5강의동, 5강의동",
    "latitude": 37.30096,
    "longitude": 127.03734
  },
  {
    "name": "경기대학교 수원캠퍼스 제6강의동(광교관)",
    "description": "광교관, 제6강의동, 6강의동",
    "latitude": 37.30082,
    "longitude": 127.03748
  },
  {
    "name": "경기대학교 수원캠퍼스 제7강의동(집현관)",
    "description": "집현관, 제7강의동, 7강의동",
    "latitude": 37.30068,
    "longitude": 127.03762
  },
  {
    "name": "경기대학교 수원캠퍼스 제8강의동(육영관)",
    "description": "육영관, 제8강의동, 8강의동",
    "latitude": 37.30054,
    "longitude": 127.03776
  },
  {
    "name": "경기대학교 수원캠퍼스 제9강의동(호연관)",
    "description": "호연관, 제9강의동, 9강의동",
    "latitude": 37.30040,
    "longitude": 127.03790
  }
]
